{"facility_id": "fac_001", "name": "Bucharest Emergency Hospital", "type": "hospital", "city": "Bucharest", "area": "Sector 1", "address": "Calea Floreasca 8", "phone": "+40215992300", "hours": "24/7", "specialties": ["emergency", "trauma", "cardiology"], "source": "sample", "last_verified": "2023-10-01"}
{"facility_id": "fac_002", "name": "Regina Maria Polyclinic", "type": "clinic", "city": "Bucharest", "area": "Sector 2", "address": "Bulevardul Lacul Tei 10", "phone": "021 9268", "hours": "08:00-20:00", "specialties": ["dermatology", "gp", "pediatrics"], "booking_url": "https://reginamaria.ro", "source": "sample", "last_verified": "2023-10-05"}
{"facility_id": "fac_003", "name": "Sanador Clinical Hospital", "type": "hospital", "city": "Bucharest", "area": "Sector 1", "address": "Strada Sevastopol 9", "phone": "0219699", "hours": "24/7", "specialties": ["surgery", "oncology", "cardiology"], "source": "sample", "last_verified": "2023-10-02"}
{"facility_id": "fac_004", "name": "MedLife Grivita", "type": "clinic", "city": "Bucharest", "area": "Sector 1", "address": "Calea Grivitei 365", "phone": "021 9646", "hours": "07:00-21:00", "specialties": ["radiology", "orthopedics"], "source": "sample", "last_verified": "2023-09-20"}
{"facility_id": "fac_005", "name": "Marie Curie Children Hospital", "type": "hospital", "city": "Bucharest", "area": "Sector 4", "address": "Bulevardul Constantin Brancoveanu 20", "phone": "+40214603026", "hours": "24/7", "specialties": ["pediatrics", "neonatology"], "source": "sample", "last_verified": "2023-10-10"}
{"facility_id": "fac_006", "name": "Medicover Pipera", "type": "clinic", "city": "Bucharest", "area": "Sector 2", "address": "Soseaua Pipera 46", "phone": "021 9896", "hours": "08:00-18:00", "specialties": ["cardiology", "neurology"], "source": "sample", "last_verified": "2023-09-25"}
{"facility_id": "fac_007", "name": "Elias Emergency University Hospital", "type": "hospital", "city": "Bucharest", "area": "Sector 1", "address": "Bulevardul Marasti 17", "phone": "+40213161600", "hours": "24/7", "specialties": ["emergency", "internal medicine"], "source": "sample", "last_verified": "2023-10-03"}
{"facility_id": "fac_008", "name": "Synevo Lab", "type": "lab", "city": "Bucharest", "area": "Sector 3", "address": "Bulevardul Camil Ressu 1", "phone": "021 4070700", "hours": "07:00-15:00", "specialties": ["blood tests"], "source": "sample", "last_verified": "2023-09-28"}
{"facility_id": "fac_009", "name": "Dent Estet Primavarii", "type": "dental", "city": "Bucharest", "area": "Sector 1", "address": "Bulevardul Primaverii 39", "phone": "0744 336 837", "hours": "09:00-21:00", "specialties": ["dentistry", "orthodontics"], "source": "sample", "last_verified": "2023-10-08"}
{"facility_id": "fac_010", "name": "University Emergency Hospital Bucharest", "type": "hospital", "city": "Bucharest", "area": "Sector 5", "address": "Splaiul Independentei 169", "phone": "+40213180522", "hours": "24/7", "specialties": ["emergency", "trauma", "neurology"], "source": "sample", "last_verified": "2023-10-04"}
{"facility_id": "fac_011", "name": "Emerald Medical Center", "type": "clinic", "city": "Bucharest", "area": "Sector 2", "address": "Strada Nicolae Caramfil 85A", "phone": "021 230 2525", "hours": "08:00-20:00", "specialties": ["cardiology", "mri"], "source": "sample", "last_verified": "2023-09-22"}
{"facility_id": "fac_012", "name": "Fundeni Clinical Institute", "type": "hospital", "city": "Bucharest", "area": "Sector 2", "address": "Soseaua Fundeni 258", "phone": "+40212750700", "hours": "24/7", "specialties": ["oncology", "transplant", "hematology"], "source": "sample", "last_verified": "2023-10-01"}
{"facility_id": "fac_013", "name": "Dona Pharmacy", "type": "pharmacy", "city": "Bucharest", "area": "Sector 6", "address": "Bulevardul Iuliu Maniu 14", "phone": "0372 407 183", "hours": "08:00-22:00", "specialties": ["pharmacy"], "source": "sample", "last_verified": "2023-10-07"}
{"facility_id": "fac_014", "name": "Lotus Med", "type": "clinic", "city": "Bucharest", "area": "Sector 1", "address": "Strada Dorobanti 10", "phone": "021 316 16 16", "hours": "08:00-18:00", "specialties": ["gp", "endocrinology"], "source": "sample", "last_verified": "2023-09-29"}
{"facility_id": "fac_015", "name": "Bagdasar-Arseni Emergency Hospital", "type": "hospital", "city": "Bucharest", "area": "Sector 4", "address": "Soseaua Berceni 12", "phone": "+40213343025", "hours": "24/7", "specialties": ["neurosurgery", "trauma", "rehabilitation"], "source": "sample", "last_verified": "2023-10-06"}
